{"type": "FeatureCollection", "features": [{"type": "Feature", "geometry": {"type": "Point", "coordinates": [-5.9225571, 37.3946712]}, "properties": {"duration": {"startTimestamp": "2024-02-06T18:47:46.525Z", "endTimestamp": "2024-02-06T19:25:33.120Z"}}}, {"type": "Feature", "geometry": {"type": "Point", "coordinates": [-5.9741945, 37.392675]}, "properties": {"duration": {"startTimestamp": "2024-02-06T19:36:59.257Z", "endTimestamp": "2024-02-06T19:45:04.284Z"}}}, {"type": "Feature", "geometry": {"type": "Point", "coordinates": [-4.7690233, 37.8884343]}, "properties": {"duration": {"startTimestamp": "2024-02-17T09:38:44Z", "endTimestamp": "2024-02-20T11:27:43.973Z"}}}, {"type": "Feature", "geometry": {"type": "Point", "coordinates": [-4.7670147, 37.8895971]}, "properties": {"address": "C. Mar\u00c3\u00ada Auxiliadora, 25, Centro, 14002 C\u00c3\u00b3rdoba, Espa\u00c3\u00b1a", "name": "Restaurante Sociedad Plateros Mar\u00c3\u00ada Auxiliadora"}}, {"type": "Feature", "geometry": {"type": "Point", "coordinates": [-4.4205751, 36.7174599]}, "properties": {"address": "Pl. de la Marina, 11, Distrito Centro, 29001 M\u00c3\u00a1laga, Espa\u00c3\u00b1a", "name": "Tourist Office"}}, {"type": "Feature", "geometry": {"type": "Point", "coordinates": [-4.7672755, 37.8887576]}, "properties": {"address": "C. Santo Domingo Savio, 2, Centro, 14002 C\u00c3\u00b3rdoba, Espa\u00c3\u00b1a", "name": "Cordoba Salesianos"}}, {"type": "Feature", "geometry": {"type": "Point", "coordinates": [-4.7700042, 37.8884671]}, "properties": {"address": "Pl. de San Rafael, 8, Centro, 14001 C\u00c3\u00b3rdoba, Espa\u00c3\u00b1a", "name": "Iglesia del Juramento de San Rafael"}}, {"type": "Feature", "geometry": {"type": "Point", "coordinates": [-4.769461, 37.887928]}, "properties": {"address": "C. Arroyo de San Lorenzo, 2, Centro, 14002 C\u00c3\u00b3rdoba, Espa\u00c3\u00b1a", "name": "TU MOMENTO"}}, {"type": "Feature", "geometry": {"type": "Point", "coordinates": [-4.4156899, 36.7191148]}, "properties": {"address": "Paseo del Parque, 1, Distrito Centro, 29015 M\u00c3\u00a1laga, Espa\u00c3\u00b1a", "name": "M\u00c3\u00a1laga Park"}}, {"type": "Feature", "geometry": {"type": "Point", "coordinates": [-4.7671534, 37.8891013]}, "properties": {"address": "Plaza del Gamo, 1, Centro, 14002 C\u00c3\u00b3rdoba, Espa\u00c3\u00b1a", "name": "DECACH\u00c3\u2030 SALESIANOS | Copas & Tapas"}}, {"type": "Feature", "geometry": {"type": "Point", "coordinates": [-4.7688981, 37.8882992]}, "properties": {"address": "Pl. de San Lorenzo, Centro, 14002 C\u00c3\u00b3rdoba, Espa\u00c3\u00b1a", "name": "Taberna El P\u00c3\u00b3rtico de San Lorenzo"}}, {"type": "Feature", "geometry": {"type": "Point", "coordinates": [-4.7704833, 37.8888884]}, "properties": {"address": "C. Custodio, 7, Centro, 14001 C\u00c3\u00b3rdoba, Espa\u00c3\u00b1a", "name": "Alhajas de C\u00c3\u00b3rdoba"}}, {"type": "Feature", "geometry": {"type": "Point", "coordinates": [-2.1465536, 40.0782938]}, "properties": {"duration": {"startTimestamp": "2024-02-24T11:25:58.819Z", "endTimestamp": "2024-02-24T11:50:55.609Z"}}}, {"type": "Feature", "geometry": {"type": "Point", "coordinates": [-2.1474743, 40.0796595]}, "properties": {"duration": {"startTimestamp": "2024-02-24T11:25:58.819Z", "endTimestamp": "2024-02-24T11:34:56Z"}}}, {"type": "Feature", "geometry": {"type": "Point", "coordinates": [-2.1463163, 40.0805835]}, "properties": {"address": "Calle de Sta. Teresa Jornet, s/n, 16002 Cuenca, Espa\u00c3\u00b1a", "name": "Facultad de Bellas Artes"}}, {"type": "Feature", "geometry": {"type": "Point", "coordinates": [-2.1473558, 40.0787544]}, "properties": {"address": "Cam. Nohales, 4, 16002 Cuenca, Espa\u00c3\u00b1a", "name": "Facultad de Enfermer\u00c3\u00ada"}}, {"type": "Feature", "geometry": {"type": "Point", "coordinates": [-2.148305, 40.0777917]}, "properties": {"address": "C. de Pedro Almodovar, 2C, 16002 Cuenca, Espa\u00c3\u00b1a", "name": "Juan Gim\u00c3\u00a9nez Aguilar University Residence"}}, {"type": "Feature", "geometry": {"type": "Point", "coordinates": [-2.1460621, 40.0786547]}, "properties": {"address": "Residencia Universitaria, Calle de Sta. Teresa Jornet, 4, 16002 Cuenca, Espa\u00c3\u00b1a", "name": "University Residence Bartolom\u00c3\u00a9 Cossio"}}, {"type": "Feature", "geometry": {"type": "Point", "coordinates": [-2.1468108, 40.0787495]}, "properties": {"address": "Cam. Nohales, 4, 16002 Cuenca, Espa\u00c3\u00b1a", "name": "School of Social Work"}}, {"type": "Feature", "geometry": {"type": "Point", "coordinates": [-2.1482024, 40.0788365]}, "properties": {"address": "16002 Cuenca, Espa\u00c3\u00b1a", "name": "Instituto de Tecnolog\u00c3\u00adas Audiovisuales"}}, {"type": "Feature", "geometry": {"type": "Point", "coordinates": [-2.1475224, 40.0780359]}, "properties": {"address": "Camino del Pozuelo, s/n, 16002 Cuenca, Espa\u00c3\u00b1a", "name": "Campus Academic Management Unit"}}, {"type": "Feature", "geometry": {"type": "Point", "coordinates": [-2.148764, 40.0788394]}, "properties": {"address": "16002 Cuenca, Espa\u00c3\u00b1a", "name": "Facultad de Periodismo-Edificio Polivalente"}}, {"type": "Feature", "geometry": {"type": "Point", "coordinates": [-2.1474488, 40.0787935]}, "properties": {"address": "Edif. Melchor Cano, Calle Benito, 48, 16002 Cuenca, Espa\u00c3\u00b1a", "name": "School of Nursing"}}, {"type": "Feature", "geometry": {"type": "Point", "coordinates": [-2.1477706, 40.0797271]}, "properties": {"address": "Calle de Sta. Teresa Jornet, 4, 16002 Cuenca, Espa\u00c3\u00b1a"}}, {"type": "Feature", "geometry": {"type": "Point", "coordinates": [-2.14974, 40.07772]}, "properties": {"address": "C. de Pedro Almodovar, 16002 Cuenca, Espa\u00c3\u00b1a", "name": "Lidl"}}, {"type": "Feature", "geometry": {"type": "Point", "coordinates": [-2.1491776, 40.078702]}, "properties": {"address": "C. de Pedro Almodovar, 4, 16002 Cuenca, Espa\u00c3\u00b1a"}}, {"type": "Feature", "geometry": {"type": "Point", "coordinates": [-2.1472373, 40.0787689]}, "properties": {"address": "16002 Cuenca, Espa\u00c3\u00b1a", "name": "Edificio Melchor Cano"}}, {"type": "Feature", "geometry": {"type": "Point", "coordinates": [-2.1457531, 40.0791481]}, "properties": {"address": "C. Benito, 46, 16002 Cuenca, Espa\u00c3\u00b1a"}}, {"type": "Feature", "geometry": {"type": "Point", "coordinates": [-2.1465, 40.07842]}, "properties": {"address": "C. de Pedro Almodovar, 2B, 16002 Cuenca, Espa\u00c3\u00b1a"}}, {"type": "Feature", "geometry": {"type": "Point", "coordinates": [-2.1462912, 40.0787765]}, "properties": {"address": "C. Benito, 3, 16002 Cuenca, Espa\u00c3\u00b1a"}}, {"type": "Feature", "geometry": {"type": "Point", "coordinates": [-2.145016, 40.0788234]}, "properties": {"address": "16002 Cuenca, Espa\u00c3\u00b1a", "name": "Residencia Universitaria"}}, {"type": "Feature", "geometry": {"type": "Point", "coordinates": [-2.1457429, 40.0786848]}, "properties": {"address": "16002 Cuenca, Espa\u00c3\u00b1a", "name": "Residencia Universitaria"}}, {"type": "Feature", "geometry": {"type": "Point", "coordinates": [-4.7893418, 37.8765777]}, "properties": {"duration": {"startTimestamp": "2024-02-26T22:04:02.848Z", "endTimestamp": "2024-03-02T20:54:56Z"}}}]}